{"1":{"name":"Luzhniki Stadium","city":"Moscow","lat":{"$numberDouble":"55.715765"},"lng":{"$numberDouble":"37.5515217"}},"2":{"name":"Otkrytiye Arena","city":"Moscow","lat":{"$numberDouble":"55.817765"},"lng":{"$numberDouble":"37.440363"}},"3":{"name":"Krestovsky Stadium","city":"Saint Petersburg","lat":{"$numberDouble":"59.97274"},"lng":{"$numberDouble":"30.221408"}},"4":{"name":"Kaliningrad Stadium","city":"Kaliningrad","lat":{"$numberDouble":"54.698157"},"lng":{"$numberDouble":"20.533859"}},"5":{"name":"Kazan Arena","city":"Kazan","lat":{"$numberDouble":"55.820983"},"lng":{"$numberDouble":"49.160966"}},"6":{"name":"Nizhny Novgorod Stadium","city":"Nizhny Novgorod","lat":{"$numberDouble":"56.337287"},"lng":{"$numberDouble":"43.963251"}},"7":{"name":"Cosmos Arena","city":"Samara","lat":{"$numberDouble":"53.278146"},"lng":{"$numberDouble":"50.238854"}},"8":{"name":"Volgograd Arena","city":"Volgograd","lat":{"$numberDouble":"48.734195"},"lng":{"$numberDouble":"44.548345"}},"9":{"name":"Mordovia Arena","city":"Saransk","lat":{"$numberDouble":"54.181795"},"lng":{"$numberDouble":"45.203851"}},"10":{"name":"Rostov Arena","city":"Rostov-on-Don","lat":{"$numberDouble":"47.209581"},"lng":{"$numberDouble":"39.738424"}},"11":{"name":"Fisht Olympic Stadium","city":"Sochi","lat":{"$numberDouble":"43.402011"},"lng":{"$numberDouble":"39.955709"}},"12":{"name":"Central Stadium","city":"Yekaterinburg","lat":{"$numberDouble":"56.83249"},"lng":{"$numberDouble":"60.573585"}},"_id":{"$oid":"5af7526d9e90a5fde57fe191"}}
